{"type":"FeatureCollection","features":[{"type":"Feature","properties":{"NAME":"Purnia"},"geometry":{"type":"Point","coordinates":[87.47997269587552,25.785414448036306]}},{"type":"Feature","properties":{"NAME":"Muzaffarpur"},"geometry":{"type":"Point","coordinates":[85.3799458403983,26.120432758584514]}},{"type":"Feature","properties":{"NAME":"Aurangabad"},"geometry":{"type":"Point","coordinates":[84.38000687555052,24.770411803175477]}},{"type":"Feature","properties":{"NAME":"Gaya"},"geometry":{"type":"Point","coordinates":[85.0000207101885,24.799970722446346]}},{"type":"Feature","properties":{"NAME":"Bhagalpur"},"geometry":{"type":"Point","coordinates":[86.9800032134516,25.22999615376318]}},{"type":"Feature","properties":{"NAME":"Patna"},"geometry":{"type":"Point","coordinates":[85.12809275522181,25.626904984382918]}}]}